[
  {
    "name": "Hotel Best Western John Bauer",
    "url": "https://www.bestwestern.se/hotel/88072",
    "district": "Kålgården",
    "address": "Södra Strandgatan 15, 553 21 Jönköping, Sweden",
    "shopType": "unknown",
    "openingHours": "unknown",
    "coordinates": {
      "longitude": 14.1714119,
      "latitude": 57.7815247
    }
  },
  {
    "name": "Grand Hotel",
    "url": "unknown",
    "district": "Öster",
    "address": "Östra Storgatan, 553 22 Jönköping, Sweden",
    "shopType": "unknown",
    "openingHours": "unknown",
    "coordinates": {
      "longitude": 14.1768975,
      "latitude": 57.781669
    }
  },
  {
    "name": "Vox hotel",
    "url": "https://voxhotel.se/",
    "district": "Kålgården",
    "address": "Lantmätargränd 2, 553 20 Jönköping, Sweden",
    "shopType": "unknown",
    "openingHours": "unknown",
    "coordinates": {
      "longitude": 14.1741142,
      "latitude": 57.7827952
    }
  },
  {
    "name": "Elite Stora Hotellet",
    "url": "unknown",
    "district": "Kålgården",
    "address": "Norra Strandgatan, 553 21 Jönköping, Sweden",
    "shopType": "unknown",
    "openingHours": "unknown",
    "coordinates": {
      "longitude": 14.1695751,
      "latitude": 57.7833464
    }
  },
  {
    "name": "Hotel Savoy",
    "url": "unknown",
    "district": "Väster",
    "address": "Brunnsgatan, 553 16 Jönköping, Sweden",
    "shopType": "unknown",
    "openingHours": "unknown",
    "coordinates": {
      "longitude": 14.1600994,
      "latitude": 57.7813875
    }
  },
  {
    "name": "Scandic Portalen",
    "url": "unknown",
    "district": "Väster",
    "address": "Västra Storgatan, 553 15 Jönköping, Sweden",
    "shopType": "unknown",
    "openingHours": "unknown",
    "coordinates": {
      "longitude": 14.1633466,
      "latitude": 57.7832245
    }
  },
  {
    "name": "Comfort Hotel",
    "url": "http://www.comfort-jkpg.se",
    "district": "Väster",
    "address": "Klostergatan 28, 553 17 Jönköping, Sweden",
    "shopType": "unknown",
    "openingHours": "24/7",
    "coordinates": {
      "longitude": 14.1563562,
      "latitude": 57.7789738
    }
  },
  {
    "name": "Clarion Collection Hotel Victoria",
    "url": "unknown",
    "district": "Väster",
    "address": "F E Elmgrensgata, 553 15 Jönköping, Sweden",
    "shopType": "unknown",
    "openingHours": "unknown",
    "coordinates": {
      "longitude": 14.1605972,
      "latitude": 57.7826051
    }
  },
  {
    "name": "Quality Hotel Match",
    "url": "unknown",
    "district": "Väster",
    "address": "Tändsticksgränd, 553 15 Jönköping, Sweden",
    "shopType": "unknown",
    "openingHours": "unknown",
    "coordinates": {
      "longitude": 14.1607198,
      "latitude": 57.7840965
    }
  },
  {
    "name": "City Hotel",
    "url": "unknown",
    "district": "Väster",
    "address": "Västra Storgatan, 553 15 Jönköping, Sweden",
    "shopType": "unknown",
    "openingHours": "unknown",
    "coordinates": {
      "longitude": 14.1590694,
      "latitude": 57.7837257
    }
  },
  {
    "name": "Good Morning Jönköping",
    "url": "unknown",
    "district": "Skeppsbron",
    "address": "Strömsnäsgatan, 553 30 Jönköping, Sweden",
    "shopType": "unknown",
    "openingHours": "unknown",
    "coordinates": {
      "longitude": 14.151741870665777,
      "latitude": 57.76344105
    }
  }
]