{
  "0": {
    "name": "El gordo",
    "url": "unknown",
    "district": "Kålgården",
    "address": "Lillsjöraden, 553 20 Jönköping, Sweden",
    "shopType": "unknown",
    "openingHours": "unknown",
    "coordinates": {
      "longitude": 14.1715551,
      "latitude": 57.7801959
    }
  },
  "1": {
    "name": "Burger King",
    "url": "unknown",
    "district": "Kålgården",
    "address": "Lantmätargränd 63, 553 20 Jönköping, Sweden",
    "shopType": "unknown",
    "openingHours": "unknown",
    "coordinates": {
      "longitude": 14.172609,
      "latitude": 57.7801238
    }
  },
  "2": {
    "name": "Bada Bing Burger",
    "url": "https://badabingburger.se/atollen",
    "district": "Kålgården",
    "address": "Lillsjöraden 14, 553 20 Jönköping, Sweden",
    "shopType": "unknown",
    "openingHours": "Mo-Su 11:00-22:00",
    "coordinates": {
      "longitude": 14.171556,
      "latitude": 57.7803229
    }
  },
  "3": {
    "name": "Ciro",
    "url": "unknown",
    "district": "Kålgården",
    "address": "Fiskargränd, 553 20 Jönköping, Sweden",
    "shopType": "unknown",
    "openingHours": "unknown",
    "coordinates": {
      "longitude": 14.1716117,
      "latitude": 57.7805397
    }
  },
  "4": {
    "name": "Bastard Burgers",
    "url": "unknown",
    "district": "Kålgården",
    "address": "Lantmätargränd 34, 553 20 Jönköping, Sweden",
    "shopType": "unknown",
    "openingHours": "unknown",
    "coordinates": {
      "longitude": 14.1716881,
      "latitude": 57.7806749
    }
  },
  "5": {
    "name": "Rio",
    "url": "unknown",
    "district": "Väster",
    "address": "Gjuterigatan 5, 553 18 Jönköping, Sweden",
    "shopType": "unknown",
    "openingHours": "unknown",
    "coordinates": {
      "longitude": 14.1635513,
      "latitude": 57.7789767
    }
  },
  "6": {
    "name": "Max",
    "url": "https://www.max.se/sv/Hitta-Max/Restauranger/Jonkoping-Herkulesvagen-vid-ICA-Maxi/",
    "district": "Kålgården",
    "address": "Herkulesvägen, 553 24 Jönköping, Sweden",
    "shopType": "unknown",
    "openingHours": "unknown",
    "coordinates": {
      "longitude": 14.176369000000001,
      "latitude": 57.773393
    }
  },
  "7": {
    "name": "Taste of Beirut",
    "url": "unknown",
    "district": "Väster",
    "address": "Gjuterigatan 5, 553 18 Jönköping, Sweden",
    "shopType": "unknown",
    "openingHours": "unknown",
    "coordinates": {
      "longitude": 14.1622719,
      "latitude": 57.7778398
    }
  },
  "8": {
    "name": "Bernards",
    "url": "unknown",
    "district": "Kålgården",
    "address": "Lantmätargränd 34, 553 20 Jönköping, Sweden",
    "shopType": "unknown",
    "openingHours": "Mo-Fr 07:30-19:30; Sa 07:30-17:00; Su 09:00-16:00",
    "coordinates": {
      "longitude": 14.1725475,
      "latitude": 57.7807685
    }
  },
  "9": {
    "name": "Guvernören",
    "url": "unknown",
    "district": "Väster",
    "address": "Vallgatan 3, 551 86 Jönköping, Sweden",
    "shopType": "unknown",
    "openingHours": "unknown",
    "coordinates": {
      "longitude": 14.166604260538914,
      "latitude": 57.78083895
    }
  },
  "10": {
    "name": "Vue",
    "url": "unknown",
    "district": "Kålgården",
    "address": "Södra Strandgatan, 553 21 Jönköping, Sweden",
    "shopType": "unknown",
    "openingHours": "unknown",
    "coordinates": {
      "longitude": 14.1714151,
      "latitude": 57.7811337
    }
  },
  "11": {
    "name": "Bryggan cafe & bistro",
    "url": "unknown",
    "district": "Kålgården",
    "address": "Södra Strandgatan, 553 21 Jönköping, Sweden",
    "shopType": "unknown",
    "openingHours": "unknown",
    "coordinates": {
      "longitude": 14.1707198,
      "latitude": 57.781332
    }
  },
  "12": {
    "name": "Gamla Wok",
    "url": "http://www.gamlawok.se",
    "district": "Kålgården",
    "address": "Borgmästargränd 5, 553 21 Jönköping, Sweden",
    "shopType": "unknown",
    "openingHours": "Mo-Su 11:00-21:00",
    "coordinates": {
      "longitude": 14.1722901,
      "latitude": 57.7812735
    }
  },
  "13": {
    "name": "Ester Kök & Bar",
    "url": "unknown",
    "district": "Kålgården",
    "address": "Södra Strandgatan, 553 21 Jönköping, Sweden",
    "shopType": "unknown",
    "openingHours": "unknown",
    "coordinates": {
      "longitude": 14.1718271,
      "latitude": 57.7813706
    }
  },
  "14": {
    "name": "Neo",
    "url": "unknown",
    "district": "Kålgården",
    "address": "Södra Strandgatan, 553 21 Jönköping, Sweden",
    "shopType": "unknown",
    "openingHours": "unknown",
    "coordinates": {
      "longitude": 14.1700697,
      "latitude": 57.7815059
    }
  },
  "15": {
    "name": "Kaffebönan",
    "url": "http://www.kaffebonanjonkoping.com",
    "district": "Kålgården",
    "address": "Borgmästargränd 5, 553 20 Jönköping, Sweden",
    "shopType": "unknown",
    "openingHours": "unknown",
    "coordinates": {
      "longitude": 14.172356,
      "latitude": 57.7816117
    }
  },
  "16": {
    "name": "La Dolce Vita",
    "url": "unknown",
    "district": "Kålgården",
    "address": "Borgmästargränd, 553 21 Jönköping, Sweden",
    "shopType": "unknown",
    "openingHours": "unknown",
    "coordinates": {
      "longitude": 14.1720127,
      "latitude": 57.7816574
    }
  },
  "17": {
    "name": "Wayne's Coffee",
    "url": "unknown",
    "district": "Väster",
    "address": "Hoppets gränd, 551 86 Jönköping, Sweden",
    "shopType": "unknown",
    "openingHours": "unknown",
    "coordinates": {
      "longitude": 14.169575917241378,
      "latitude": 57.7819864
    }
  },
  "18": {
    "name": "En italienare & en grek",
    "url": "unknown",
    "district": "Väster",
    "address": "Barnarpsgatan, 553 16 Jönköping, Sweden",
    "shopType": "unknown",
    "openingHours": "unknown",
    "coordinates": {
      "longitude": 14.1616186,
      "latitude": 57.7798819
    }
  },
  "19": {
    "name": "Lingon",
    "url": "unknown",
    "district": "Kålgården",
    "address": "Smedjegatan, 553 21 Jönköping, Sweden",
    "shopType": "unknown",
    "openingHours": "unknown",
    "coordinates": {
      "longitude": 14.1713313,
      "latitude": 57.7821879
    }
  },
  "20": {
    "name": "Subway",
    "url": "unknown",
    "district": "Kålgården",
    "address": "Hoppets torg, 553 20 Jönköping, Sweden",
    "shopType": "unknown",
    "openingHours": "unknown",
    "coordinates": {
      "longitude": 14.1697978,
      "latitude": 57.7823364
    }
  },
  "21": {
    "name": "Frimans Café & Bistro",
    "url": "unknown",
    "district": "Väster",
    "address": "Hoppets gränd, 551 86 Jönköping, Sweden",
    "shopType": "unknown",
    "openingHours": "unknown",
    "coordinates": {
      "longitude": 14.1694906,
      "latitude": 57.7823919
    }
  },
  "22": {
    "name": "Bernards City",
    "url": "unknown",
    "district": "Kålgården",
    "address": "Östra Storgatan, 553 21 Jönköping, Sweden",
    "shopType": "unknown",
    "openingHours": "unknown",
    "coordinates": {
      "longitude": 14.1717266,
      "latitude": 57.7823563
    }
  },
  "23": {
    "name": "Espresso House",
    "url": "unknown",
    "district": "Kålgården",
    "address": "Östra Storgatan, 553 21 Jönköping, Sweden",
    "shopType": "unknown",
    "openingHours": "unknown",
    "coordinates": {
      "longitude": 14.1737647,
      "latitude": 57.7821159
    }
  },
  "24": {
    "name": "Brödernas Jönköping City",
    "url": "https://brodernas.nu/restauranger/jonkoping-city/",
    "district": "Kålgården",
    "address": "Östra Storgatan 12, 553 21 Jönköping, Sweden",
    "shopType": "unknown",
    "openingHours": "Mo-Th 11:00-14:00, 16:00-21:00, Fr-Sa 11:00-22:00, Su, PH 12:00-20:=0",
    "coordinates": {
      "longitude": 14.1714913,
      "latitude": 57.7824076
    }
  },
  "25": {
    "name": "Cyrano",
    "url": "https://cyrano.se/Restaurant/Detail?Url=cyrano-jonkoping",
    "district": "Kålgården",
    "address": "Östra Storgatan 10, 553 21 Jönköping, Sweden",
    "shopType": "unknown",
    "openingHours": "Mo-Th 11:30-21:30, Fr 11:30-22:30, Sa 12:00-22:30, Su 12:00-21:00",
    "coordinates": {
      "longitude": 14.1710276,
      "latitude": 57.7824523
    }
  },
  "26": {
    "name": "Liban Deli",
    "url": "unknown",
    "district": "Väster",
    "address": "Barnarpsgatan, 553 16 Jönköping, Sweden",
    "shopType": "unknown",
    "openingHours": "unknown",
    "coordinates": {
      "longitude": 14.1622032,
      "latitude": 57.7807716
    }
  },
  "27": {
    "name": "yallayalla",
    "url": "http://yallayallajonkoping.se/",
    "district": "Väster",
    "address": "Hamnplansgatan 3, 553 15 Jönköping, Sweden",
    "shopType": "unknown",
    "openingHours": "Mo-Fr 11:00-19:00",
    "coordinates": {
      "longitude": 14.1679922,
      "latitude": 57.7825182
    }
  },
  "28": {
    "name": "Sajens Mat & Möten",
    "url": "unknown",
    "district": "Väster",
    "address": "Gjuterigatan 9, 553 18 Jönköping, Sweden",
    "shopType": "unknown",
    "openingHours": "Mo-Fr 07:45-16:00",
    "coordinates": {
      "longitude": 14.159859,
      "latitude": 57.7793764
    }
  },
  "29": {
    "name": "Kafé Braheparken",
    "url": "unknown",
    "district": "Väster",
    "address": "Kyrkogatan, 553 18 Jönköping, Sweden",
    "shopType": "unknown",
    "openingHours": "unknown",
    "coordinates": {
      "longitude": 14.1640378,
      "latitude": 57.7818312
    }
  },
  "30": {
    "name": "STUK",
    "url": "unknown",
    "district": "Kålgården",
    "address": "Lantmätargränd, 553 21 Jönköping, Sweden",
    "shopType": "unknown",
    "openingHours": "unknown",
    "coordinates": {
      "longitude": 14.1742334,
      "latitude": 57.7824511
    }
  },
  "31": {
    "name": "Rosegarden",
    "url": "https://rosegarden.se/locations/jkpggrand",
    "district": "Kålgården",
    "address": "Östra Storgatan 33, 553 21 Jönköping, Sweden",
    "shopType": "unknown",
    "openingHours": "Mo-Th 11:30-14:30, 17:30-21:00, Fr 11:30-14:30, 17:30-22:00, Sa 12:00-15:00, 17:30-22:00, Su 13:00-21:00",
    "coordinates": {
      "longitude": 14.1766133,
      "latitude": 57.7819729
    }
  },
  "32": {
    "name": "Tandori palace",
    "url": "https://www.tandooripalace.se/start.html",
    "district": "Söder",
    "address": "Brahegatan, 553 37 Jönköping, Sweden",
    "shopType": "unknown",
    "openingHours": "unknown",
    "coordinates": {
      "longitude": 14.1583465,
      "latitude": 57.7780921
    }
  },
  "33": {
    "name": "Sushi Yama",
    "url": "https://www.sushiyama.se/",
    "district": "Väster",
    "address": "Barnarpsgatan 30, 553 16 Jönköping, Sweden",
    "shopType": "unknown",
    "openingHours": "Mo-Sa 11:00-21:00; Su 12:00-21:00",
    "coordinates": {
      "longitude": 14.1622685,
      "latitude": 57.7814424
    }
  },
  "34": {
    "name": "Bernards Konditori",
    "url": "unknown",
    "district": "Väster",
    "address": "Skolgatan, 553 16 Jönköping, Sweden",
    "shopType": "unknown",
    "openingHours": "unknown",
    "coordinates": {
      "longitude": 14.1643068,
      "latitude": 57.7822051
    }
  },
  "35": {
    "name": "Aqua Dinner & Drink",
    "url": "unknown",
    "district": "Väster",
    "address": "Barnarpsgatan, 553 16 Jönköping, Sweden",
    "shopType": "unknown",
    "openingHours": "unknown",
    "coordinates": {
      "longitude": 14.1623342,
      "latitude": 57.7815171
    }
  },
  "36": {
    "name": "Lilla Malmborgs",
    "url": "unknown",
    "district": "Väster",
    "address": "Brunnsgatan, 553 16 Jönköping, Sweden",
    "shopType": "unknown",
    "openingHours": "unknown",
    "coordinates": {
      "longitude": 14.1618183,
      "latitude": 57.781301
    }
  },
  "37": {
    "name": "Twin City",
    "url": "unknown",
    "district": "Väster",
    "address": "Västra Storgatan, 551 86 Jönköping, Sweden",
    "shopType": "unknown",
    "openingHours": "unknown",
    "coordinates": {
      "longitude": 14.168005751917253,
      "latitude": 57.783124799999996
    }
  },
  "38": {
    "name": "Find.uzz Cat Café",
    "url": "https://finduzzcatcafe.se",
    "district": "Väster",
    "address": "Nygatan 15, 553 16 Jönköping, Sweden",
    "shopType": "unknown",
    "openingHours": "unknown",
    "coordinates": {
      "longitude": 14.162118,
      "latitude": 57.7817928
    }
  },
  "39": {
    "name": "Konditori Napoleon",
    "url": "unknown",
    "district": "Väster",
    "address": "Barnarpsgatan, 553 16 Jönköping, Sweden",
    "shopType": "unknown",
    "openingHours": "unknown",
    "coordinates": {
      "longitude": 14.1630474,
      "latitude": 57.7821848
    }
  },
  "40": {
    "name": "Park Brasserie",
    "url": "unknown",
    "district": "Väster",
    "address": "Kyrkogatan, 551 86 Jönköping, Sweden",
    "shopType": "unknown",
    "openingHours": "unknown",
    "coordinates": {
      "longitude": 14.1645984,
      "latitude": 57.782686
    }
  },
  "41": {
    "name": "Lemon Garden JKPG",
    "url": "Lemongarden.se",
    "district": "Väster",
    "address": "Trädgårdsgatan 25, 553 16 Jönköping, Sweden",
    "shopType": "unknown",
    "openingHours": "Mo-Su 12:00-23:00",
    "coordinates": {
      "longitude": 14.1611371,
      "latitude": 57.7814511
    }
  },
  "42": {
    "name": "Na Thrang",
    "url": "unknown",
    "district": "Gamla flygfältet",
    "address": "Kiselvägen, 553 24 Jönköping, Sweden",
    "shopType": "unknown",
    "openingHours": "unknown",
    "coordinates": {
      "longitude": 14.1732649,
      "latitude": 57.7696322
    }
  },
  "43": {
    "name": "Småländska Kolonin",
    "url": "unknown",
    "district": "Väster",
    "address": "Kyrkogatan, 551 86 Jönköping, Sweden",
    "shopType": "unknown",
    "openingHours": "unknown",
    "coordinates": {
      "longitude": 14.1647247,
      "latitude": 57.7828181
    }
  },
  "44": {
    "name": "Johans Café & Matsal",
    "url": "unknown",
    "district": "Väster",
    "address": "Skolgatan, 553 16 Jönköping, Sweden",
    "shopType": "unknown",
    "openingHours": "unknown",
    "coordinates": {
      "longitude": 14.1629409,
      "latitude": 57.7824603
    }
  },
  "45": {
    "name": "Trottoaren",
    "url": "unknown",
    "district": "Kålgården",
    "address": "Norra Strandgatan, 553 21 Jönköping, Sweden",
    "shopType": "unknown",
    "openingHours": "unknown",
    "coordinates": {
      "longitude": 14.1697382,
      "latitude": 57.7836388
    }
  },
  "46": {
    "name": "Campino",
    "url": "unknown",
    "district": "Väster",
    "address": "Gjuterigatan, 553 18 Jönköping, Sweden",
    "shopType": "unknown",
    "openingHours": "unknown",
    "coordinates": {
      "longitude": 14.1585642,
      "latitude": 57.78014
    }
  },
  "47": {
    "name": "Jungle Thai",
    "url": "unknown",
    "district": "Väster",
    "address": "Nygatan, 553 16 Jönköping, Sweden",
    "shopType": "unknown",
    "openingHours": "unknown",
    "coordinates": {
      "longitude": 14.1614673,
      "latitude": 57.7821211
    }
  },
  "48": {
    "name": "Samurai sushi bar",
    "url": "unknown",
    "district": "Öster",
    "address": "Östra Storgatan, 553 22 Jönköping, Sweden",
    "shopType": "unknown",
    "openingHours": "unknown",
    "coordinates": {
      "longitude": 14.1804449,
      "latitude": 57.7814758
    }
  },
  "49": {
    "name": "True Thai",
    "url": "unknown",
    "shopType": "unknown",
    "openingHours": "unknown",
    "coordinates": {
      "longitude": 14.159086599999998,
      "latitude": 57.78098980066221
    }
  },
  "50": {
    "name": "Blåhed Gastronomi",
    "url": "unknown",
    "district": "Väster",
    "address": "Trädgårdsgatan, 553 16 Jönköping, Sweden",
    "shopType": "unknown",
    "openingHours": "unknown",
    "coordinates": {
      "longitude": 14.1616615,
      "latitude": 57.782385
    }
  },
  "51": {
    "name": "Hayat Döner & Pasta",
    "url": "https://www.instagram.com/hayatdonerjkpg/",
    "district": "Väster",
    "address": "Nygatan 18, 553 16 Jönköping, Sweden",
    "shopType": "unknown",
    "openingHours": "Mo-Th 11:00-22:00; Fr 11:00-03:00; Sa 12:00-03:00; Su 13:00-22:00;",
    "coordinates": {
      "longitude": 14.1611163,
      "latitude": 57.7821999
    }
  },
  "52": {
    "name": "Åtta Glas",
    "url": "unknown",
    "district": "Väster",
    "address": "Trädgårdsgatan, 553 16 Jönköping, Sweden",
    "shopType": "unknown",
    "openingHours": "unknown",
    "coordinates": {
      "longitude": 14.1613268,
      "latitude": 57.7823713
    }
  },
  "53": {
    "name": "Tusen och en natt",
    "url": "unknown",
    "district": "Väster",
    "address": "Trädgårdsgatan, 553 16 Jönköping, Sweden",
    "shopType": "unknown",
    "openingHours": "unknown",
    "coordinates": {
      "longitude": 14.1617323,
      "latitude": 57.7825508
    }
  },
  "54": {
    "name": "Evergreen Restaurang & Pizzeria",
    "url": "unknown",
    "district": "Väster",
    "address": "Lasarettsgatan, 553 17 Jönköping, Sweden",
    "shopType": "unknown",
    "openingHours": "unknown",
    "coordinates": {
      "longitude": 14.1570439,
      "latitude": 57.7793606
    }
  },
  "55": {
    "name": "1988 Beijing",
    "url": "unknown",
    "district": "Söder",
    "address": "Klostergatan, 553 17 Jönköping, Sweden",
    "shopType": "unknown",
    "openingHours": "unknown",
    "coordinates": {
      "longitude": 14.15621,
      "latitude": 57.7781678
    }
  },
  "56": {
    "name": "Vinotek & Tapasbar",
    "url": "unknown",
    "district": "Väster",
    "address": "Västra Storgatan, 553 15 Jönköping, Sweden",
    "shopType": "unknown",
    "openingHours": "unknown",
    "coordinates": {
      "longitude": 14.163966,
      "latitude": 57.783375
    }
  },
  "57": {
    "name": "Tortellini",
    "url": "unknown",
    "district": "Söder",
    "address": "Klostergatan, 553 17 Jönköping, Sweden",
    "shopType": "unknown",
    "openingHours": "unknown",
    "coordinates": {
      "longitude": 14.1560099,
      "latitude": 57.7778888
    }
  },
  "58": {
    "name": "Piq-nick",
    "url": "unknown",
    "district": "Väster",
    "address": "Klostergatan 15, 553 17 Jönköping, Sweden",
    "shopType": "unknown",
    "openingHours": "unknown",
    "coordinates": {
      "longitude": 14.157676,
      "latitude": 57.7803
    }
  },
  "59": {
    "name": "Kock & Bar",
    "url": "unknown",
    "district": "Söder",
    "address": "Myntgatan, 553 34 Jönköping, Sweden",
    "shopType": "unknown",
    "openingHours": "unknown",
    "coordinates": {
      "longitude": 14.155907,
      "latitude": 57.7777179
    }
  },
  "60": {
    "name": "Cicki Ma Ma",
    "url": "unknown",
    "district": "Väster",
    "address": "Västra Storgatan, 553 15 Jönköping, Sweden",
    "shopType": "unknown",
    "openingHours": "unknown",
    "coordinates": {
      "longitude": 14.163408,
      "latitude": 57.783406
    }
  },
  "61": {
    "name": "Subway",
    "url": "unknown",
    "district": "Väster",
    "address": "Skolgatan, 553 16 Jönköping, Sweden",
    "shopType": "unknown",
    "openingHours": "unknown",
    "coordinates": {
      "longitude": 14.1616251,
      "latitude": 57.7828597
    }
  },
  "62": {
    "name": "Piren",
    "url": "unknown",
    "district": "Kålgården",
    "address": "Norra Strandgatan, 553 21 Jönköping, Sweden",
    "shopType": "unknown",
    "openingHours": "unknown",
    "coordinates": {
      "longitude": 14.1690885,
      "latitude": 57.7843439
    }
  },
  "63": {
    "name": "Pastabageriet",
    "url": "unknown",
    "district": "Väster",
    "address": "Klostergatan 20, 553 17 Jönköping, Sweden",
    "shopType": "unknown",
    "openingHours": "unknown",
    "coordinates": {
      "longitude": 14.157331,
      "latitude": 57.78037
    }
  },
  "64": {
    "name": "Café Adelante",
    "url": "unknown",
    "district": "Väster",
    "address": "Trädgårdsgatan, 553 16 Jönköping, Sweden",
    "shopType": "unknown",
    "openingHours": "unknown",
    "coordinates": {
      "longitude": 14.162145,
      "latitude": 57.783123
    }
  },
  "65": {
    "name": "Ztyle Bar & Matsal",
    "url": "unknown",
    "district": "Väster",
    "address": "Barnarpsgatan, 553 16 Jönköping, Sweden",
    "shopType": "unknown",
    "openingHours": "unknown",
    "coordinates": {
      "longitude": 14.163656,
      "latitude": 57.7835854
    }
  },
  "66": {
    "name": "Jensen's Bøfhus",
    "url": "unknown",
    "district": "Väster",
    "address": "Västra Storgatan, 553 15 Jönköping, Sweden",
    "shopType": "unknown",
    "openingHours": "unknown",
    "coordinates": {
      "longitude": 14.1631326,
      "latitude": 57.7834417
    }
  },
  "67": {
    "name": "Ciro",
    "url": "https://pizzadiciro.se/",
    "district": "Väster",
    "address": "Södra Strandgatan 12, 553 20 Jönköping, Sweden",
    "shopType": "unknown",
    "openingHours": "unknown",
    "coordinates": {
      "longitude": 14.1584214,
      "latitude": 57.7715988
    }
  },
  "68": {
    "name": "Sambosak",
    "url": "unknown",
    "district": "Söder",
    "address": "Klostergatan, 553 17 Jönköping, Sweden",
    "shopType": "unknown",
    "openingHours": "unknown",
    "coordinates": {
      "longitude": 14.1553528,
      "latitude": 57.7768638
    }
  },
  "69": {
    "name": "Rob's burger & steak",
    "url": "unknown",
    "district": "Väster",
    "address": "Klostergatan, 553 17 Jönköping, Sweden",
    "shopType": "unknown",
    "openingHours": "unknown",
    "coordinates": {
      "longitude": 14.1577131,
      "latitude": 57.7808789
    }
  },
  "70": {
    "name": "39:an",
    "url": "unknown",
    "district": "Söder",
    "address": "Sjögatan, 553 34 Jönköping, Sweden",
    "shopType": "unknown",
    "openingHours": "unknown",
    "coordinates": {
      "longitude": 14.1552179,
      "latitude": 57.7766822
    }
  },
  "71": {
    "name": "Sandys",
    "url": "unknown",
    "district": "Väster",
    "address": "Västra Storgatan, 553 15 Jönköping, Sweden",
    "shopType": "unknown",
    "openingHours": "unknown",
    "coordinates": {
      "longitude": 14.162308,
      "latitude": 57.7833239
    }
  },
  "72": {
    "name": "Bueno Burger",
    "url": "unknown",
    "district": "Väster",
    "address": "Västra Storgatan, 553 15 Jönköping, Sweden",
    "shopType": "unknown",
    "openingHours": "unknown",
    "coordinates": {
      "longitude": 14.1626781,
      "latitude": 57.7834872
    }
  },
  "73": {
    "name": "Coffeehouse by George",
    "url": "unknown",
    "district": "Väster",
    "address": "Lundströms plats, 553 15 Jönköping, Sweden",
    "shopType": "unknown",
    "openingHours": "unknown",
    "coordinates": {
      "longitude": 14.1619104,
      "latitude": 57.7833002
    }
  },
  "74": {
    "name": "Amadeus",
    "url": "unknown",
    "district": "Kålgården",
    "address": "Norra Strandgatan, 553 21 Jönköping, Sweden",
    "shopType": "unknown",
    "openingHours": "unknown",
    "coordinates": {
      "longitude": 14.1691313,
      "latitude": 57.7845949
    }
  },
  "75": {
    "name": "Texas Longhorn",
    "url": "unknown",
    "district": "Väster",
    "address": "Lundströms plats, 553 15 Jönköping, Sweden",
    "shopType": "unknown",
    "openingHours": "unknown",
    "coordinates": {
      "longitude": 14.1617032,
      "latitude": 57.7832512
    }
  },
  "76": {
    "name": "Mat & Vänner",
    "url": "unknown",
    "district": "Väster",
    "address": "Gjuterigatan 20, 553 17 Jönköping, Sweden",
    "shopType": "unknown",
    "openingHours": "unknown",
    "coordinates": {
      "longitude": 14.1568689,
      "latitude": 57.7805016
    }
  },
  "77": {
    "name": "Dal Baffo",
    "url": "unknown",
    "district": "Kålgården",
    "address": "Norra Strandgatan, 553 21 Jönköping, Sweden",
    "shopType": "unknown",
    "openingHours": "unknown",
    "coordinates": {
      "longitude": 14.169146,
      "latitude": 57.7847106
    }
  },
  "78": {
    "name": "Restaurang SOYA",
    "url": "unknown",
    "district": "Väster",
    "address": "Järnvägsgatan, 553 15 Jönköping, Sweden",
    "shopType": "unknown",
    "openingHours": "unknown",
    "coordinates": {
      "longitude": 14.1628434,
      "latitude": 57.7839002
    }
  },
  "79": {
    "name": "Sandéns Konditori",
    "url": "unknown",
    "district": "Söder",
    "address": "Klostergatan, 553 17 Jönköping, Sweden",
    "shopType": "unknown",
    "openingHours": "unknown",
    "coordinates": {
      "longitude": 14.154407,
      "latitude": 57.7756051
    }
  },
  "80": {
    "name": "Anna-Gretas Bar & Mat",
    "url": "unknown",
    "district": "Väster",
    "address": "Kapellgatan, 553 17 Jönköping, Sweden",
    "shopType": "unknown",
    "openingHours": "unknown",
    "coordinates": {
      "longitude": 14.156755,
      "latitude": 57.780995
    }
  },
  "81": {
    "name": "Indiska köket",
    "url": "unknown",
    "district": "Väster",
    "address": "Kapellgatan, 553 17 Jönköping, Sweden",
    "shopType": "unknown",
    "openingHours": "unknown",
    "coordinates": {
      "longitude": 14.156898,
      "latitude": 57.781209
    }
  },
  "82": {
    "name": "Graffiti Café",
    "url": "unknown",
    "district": "Väster",
    "address": "Järnvägsgatan, 553 15 Jönköping, Sweden",
    "shopType": "unknown",
    "openingHours": "unknown",
    "coordinates": {
      "longitude": 14.1625147,
      "latitude": 57.7839725
    }
  },
  "83": {
    "name": "Smirres Gatukök",
    "url": "unknown",
    "district": "Väster",
    "address": "Kapellgatan, 553 17 Jönköping, Sweden",
    "shopType": "unknown",
    "openingHours": "unknown",
    "coordinates": {
      "longitude": 14.1568489,
      "latitude": 57.7817514
    }
  },
  "84": {
    "name": "Restaurang Munken",
    "url": "unknown",
    "district": "Munksjöstaden",
    "address": "Torpagatan, 553 33 Jönköping, Sweden",
    "shopType": "unknown",
    "openingHours": "unknown",
    "coordinates": {
      "longitude": 14.1556444,
      "latitude": 57.7716423
    }
  },
  "85": {
    "name": "Café Pingst",
    "url": "unknown",
    "district": "Väster",
    "address": "Oxtorgsgatan, 553 17 Jönköping, Sweden",
    "shopType": "unknown",
    "openingHours": "unknown",
    "coordinates": {
      "longitude": 14.1554731,
      "latitude": 57.7817581
    }
  },
  "86": {
    "name": "Dal Baffo",
    "url": "https://dalbaffo.kvartersmenyn.se/",
    "district": "Öster",
    "address": "Östra Storgatan, 553 22 Jönköping, Sweden",
    "shopType": "unknown",
    "openingHours": "unknown",
    "coordinates": {
      "longitude": 14.1856527,
      "latitude": 57.7814844
    }
  },
  "87": {
    "name": "Mäster Gudmunds källare",
    "url": "https://mastergudmund.se/",
    "district": "Väster",
    "address": "Kapellgatan, 553 17 Jönköping, Sweden",
    "shopType": "unknown",
    "openingHours": "unknown",
    "coordinates": {
      "longitude": 14.1583358,
      "latitude": 57.7837923
    }
  },
  "88": {
    "name": "Pescadores",
    "url": "https://www.pescadores.se/",
    "district": "Väster",
    "address": "Svavelsticksgränd 25, 553 15 Jönköping, Sweden",
    "shopType": "unknown",
    "openingHours": "unknown",
    "coordinates": {
      "longitude": 14.1586732,
      "latitude": 57.7850469
    }
  },
  "89": {
    "name": "Tegel",
    "url": "unknown",
    "district": "Väster",
    "address": "Tändsticksgränd, 553 15 Jönköping, Sweden",
    "shopType": "unknown",
    "openingHours": "unknown",
    "coordinates": {
      "longitude": 14.1576087,
      "latitude": 57.7848457
    }
  },
  "90": {
    "name": "Brooklyn Burger Express",
    "url": "unknown",
    "district": "Torpa",
    "address": "Torpaplan 2, 553 33 Jönköping, Sweden",
    "shopType": "unknown",
    "openingHours": "unknown",
    "coordinates": {
      "longitude": 14.151585452777777,
      "latitude": 57.7719281
    }
  },
  "91": {
    "name": "Blackstone Steakhouse",
    "url": "unknown",
    "district": "Väster",
    "address": "Tändsticksgränd 8, 553 15 Jönköping, Sweden",
    "shopType": "unknown",
    "openingHours": "Tu-Sa 17:00-24:00",
    "coordinates": {
      "longitude": 14.1571249,
      "latitude": 57.7849335
    }
  },
  "92": {
    "name": "Nyfiket",
    "url": "unknown",
    "district": "Väster",
    "address": "Järnvägsgatan, 553 15 Jönköping, Sweden",
    "shopType": "unknown",
    "openingHours": "unknown",
    "coordinates": {
      "longitude": 14.1565655,
      "latitude": 57.7855825
    }
  },
  "93": {
    "name": "Raggmunken",
    "url": "unknown",
    "district": "Solåsen",
    "address": "Solåsrondellen, 553 03 Jönköping, Sweden",
    "shopType": "unknown",
    "openingHours": "unknown",
    "coordinates": {
      "longitude": 14.1860471,
      "latitude": 57.7652433
    }
  },
  "94": {
    "name": "Max i Jönköping, Jordbrovägen 8",
    "url": "https://www.max.se/sv/Hitta-Max/Restauranger/Jonkoping-Jordbrovagen/",
    "district": "Skeppsbron",
    "address": "Jordbrovägen, 553 30 Jönköping, Sweden",
    "shopType": "unknown",
    "openingHours": "unknown",
    "coordinates": {
      "longitude": 14.1528065,
      "latitude": 57.7651915
    }
  },
  "95": {
    "name": "Mangal bbq",
    "url": "unknown",
    "district": "Ryhov",
    "address": "Sjukhusgatan, 551 85 Jönköping, Sweden",
    "shopType": "unknown",
    "openingHours": "unknown",
    "coordinates": {
      "longitude": 14.1966979,
      "latitude": 57.7726572
    }
  },
  "96": {
    "name": "Chop Chop Asian Express",
    "url": "unknown",
    "district": "Ryhov",
    "address": "Sjukhusgatan, 551 85 Jönköping, Sweden",
    "shopType": "unknown",
    "openingHours": "unknown",
    "coordinates": {
      "longitude": 14.1967668,
      "latitude": 57.7725567
    }
  },
  "97": {
    "name": "Pizza Hut",
    "url": "unknown",
    "district": "Ryhov",
    "address": "Sjukhusgatan, 551 85 Jönköping, Sweden",
    "shopType": "unknown",
    "openingHours": "unknown",
    "coordinates": {
      "longitude": 14.1968144,
      "latitude": 57.7724372
    }
  },
  "98": {
    "name": "Stugan",
    "url": "unknown",
    "shopType": "unknown",
    "openingHours": "unknown",
    "coordinates": {
      "longitude": 14.144291921536148,
      "latitude": 57.78213848242682
    }
  },
  "99": {
    "name": "McDonald's",
    "url": "unknown",
    "district": "Ryhov",
    "address": "Regementsgatan, 553 05 Jönköping, Sweden",
    "shopType": "unknown",
    "openingHours": "unknown",
    "coordinates": {
      "longitude": 14.198550881315038,
      "latitude": 57.7729408
    }
  },
  "100": {
    "name": "Brödernas",
    "url": "unknown",
    "district": "Solåsen",
    "address": "Solåsvägen 6C, 553 03 Jönköping, Sweden",
    "shopType": "unknown",
    "openingHours": "unknown",
    "coordinates": {
      "longitude": 14.173339,
      "latitude": 57.7610133
    }
  },
  "101": {
    "name": "Restaurang Dragon",
    "url": "unknown",
    "district": "Solåsen",
    "address": "Solåsvägen 8B, 553 03 Jönköping, Sweden",
    "shopType": "unknown",
    "openingHours": "unknown",
    "coordinates": {
      "longitude": 14.1758794,
      "latitude": 57.7611572
    }
  },
  "102": {
    "name": "Solåsgrillen",
    "url": "unknown",
    "district": "Solåsen",
    "address": "Solåsvägen, 553 03 Jönköping, Sweden",
    "shopType": "unknown",
    "openingHours": "unknown",
    "coordinates": {
      "longitude": 14.184413,
      "latitude": 57.7625284
    }
  },
  "103": {
    "name": "Burger Space",
    "url": "unknown",
    "district": "Skeppsbron",
    "address": "Hagaleden, 553 39 Jönköping, Sweden",
    "shopType": "unknown",
    "openingHours": "unknown",
    "coordinates": {
      "longitude": 14.1509998,
      "latitude": 57.7630261
    }
  },
  "undefined": {
    "name": "Burger Space",
    "url": "unknown",
    "district": "Skeppsbron",
    "address": "Hagaleden, 553 39 Jönköping, Sweden",
    "shopType": "unknown",
    "openingHours": "unknown",
    "coordinates": {
      "longitude": 14.1509998,
      "latitude": 57.7630261
    }
  }
}