{
  "0": {
    "name": "Konditori Rosetten",
    "url": "unknown",
    "district": "Kålgården",
    "address": "Aspholmsgatan, 553 22 Jönköping, Sweden",
    "shopType": "pastry",
    "openingHours": "unknown",
    "coordinates": {
      "longitude": 14.17865,
      "latitude": 57.7765574
    }
  },
  "1": {
    "name": "Coop Atollen Jönköping",
    "url": "https://www.coop.se/butiker-erbjudanden/coop/coop-atollen-jonkoping/",
    "district": "Kålgården",
    "address": "Lantmätargränd 63, 553 21 Jönköping, Sweden",
    "shopType": "supermarket",
    "openingHours": "Mo-Su 06:00-23:00",
    "coordinates": {
      "longitude": 14.1731738,
      "latitude": 57.7802533
    }
  },
  "2": {
    "name": "Kompaniet",
    "url": "unknown",
    "district": "Kålgården",
    "address": "Södra Strandgatan, 553 21 Jönköping, Sweden",
    "shopType": "clothes",
    "openingHours": "unknown",
    "coordinates": {
      "longitude": 14.1731519,
      "latitude": 57.7806588
    }
  },
  "3": {
    "name": "Systembolaget",
    "url": "unknown",
    "district": "Kålgården",
    "address": "Fiskargränd, 553 20 Jönköping, Sweden",
    "shopType": "alcohol",
    "openingHours": "Mo-Fr 10:00-20:00; Sa 10:00-15:00; Su,PH off",
    "coordinates": {
      "longitude": 14.1719334,
      "latitude": 57.7804722
    }
  },
  "4": {
    "name": "Myrorna",
    "url": "https://www.myrorna.se/har-finns-vi/jonkoping-herkulesvagen/",
    "district": "Kålgården",
    "address": "Herkulesvägen 6, 553 24 Jönköping, Sweden",
    "shopType": "second_hand",
    "openingHours": "Mo-Fr 10:00-18:00; Sa 10:00-15:00",
    "coordinates": {
      "longitude": 14.1750499,
      "latitude": 57.7733242
    }
  },
  "5": {
    "name": "Coop Östra Torget",
    "url": "https://www.coop.se/butiker-erbjudanden/coop/coop-ostra-torget/",
    "district": "Öster",
    "address": "Rökerigränd 5, 553 22 Jönköping, Sweden",
    "shopType": "supermarket",
    "openingHours": "unknown",
    "coordinates": {
      "longitude": 14.1803282,
      "latitude": 57.7804599
    }
  },
  "6": {
    "name": "Maxi ICA Stormarknad",
    "url": "unknown",
    "district": "Kålgården",
    "address": "Herkulesvägen, 553 24 Jönköping, Sweden",
    "shopType": "supermarket",
    "openingHours": "unknown",
    "coordinates": {
      "longitude": 14.176636084699245,
      "latitude": 57.7718852
    }
  },
  "7": {
    "name": "Cervera",
    "url": "unknown",
    "district": "Kålgården",
    "address": "Östra Storgatan 34, 553 21 Jönköping, Sweden",
    "shopType": "houseware",
    "openingHours": "Mo-Fr 10:00-19:00; Sa 10:00-16:00; PH off",
    "coordinates": {
      "longitude": 14.1752987,
      "latitude": 57.7819072
    }
  },
  "8": {
    "name": "Hemtex",
    "url": "unknown",
    "district": "Kålgården",
    "address": "Östra Storgatan 34, 553 21 Jönköping, Sweden",
    "shopType": "interior_decoration",
    "openingHours": "Mo-Fr 10:00-19:00, Sa 10:00-16:00, Su 12:00-16:00",
    "coordinates": {
      "longitude": 14.1750737,
      "latitude": 57.7819362
    }
  },
  "9": {
    "name": "Åhléns",
    "url": "unknown",
    "district": "Kålgården",
    "address": "Östra Storgatan 34, 553 21 Jönköping, Sweden",
    "shopType": "department_store",
    "openingHours": "unknown",
    "coordinates": {
      "longitude": 14.1748919,
      "latitude": 57.7819596
    }
  },
  "10": {
    "name": "malmborgs",
    "url": "unknown",
    "district": "Kålgården",
    "address": "Östra Storgatan, 553 21 Jönköping, Sweden",
    "shopType": "bakery",
    "openingHours": "unknown",
    "coordinates": {
      "longitude": 14.1760065,
      "latitude": 57.7820272
    }
  },
  "11": {
    "name": "Volvo",
    "url": "unknown",
    "district": "Öster",
    "address": "Kålgårdsgatan, 553 22 Jönköping, Sweden",
    "shopType": "car",
    "openingHours": "unknown",
    "coordinates": {
      "longitude": 14.185812370060342,
      "latitude": 57.7788069
    }
  },
  "12": {
    "name": "MQ",
    "url": "unknown",
    "district": "Kålgården",
    "address": "Östra Storgatan, 553 21 Jönköping, Sweden",
    "shopType": "clothes",
    "openingHours": "unknown",
    "coordinates": {
      "longitude": 14.1741459,
      "latitude": 57.7822499
    }
  },
  "13": {
    "name": "Naturkompaniet",
    "url": "https://www.naturkompaniet.se/Shop/Shop.aspx?id=8000&parentid=6119",
    "district": "Kålgården",
    "address": "Östra Storgatan 24, 553 21 Jönköping, Sweden",
    "shopType": "outdoor",
    "openingHours": "Mo-Fr 10:00-19:00; Sa 10:00-16:00",
    "coordinates": {
      "longitude": 14.1727857,
      "latitude": 57.7822128
    }
  },
  "14": {
    "name": "Ginatricot",
    "url": "unknown",
    "district": "Kålgården",
    "address": "Östra Storgatan, 553 21 Jönköping, Sweden",
    "shopType": "clothes",
    "openingHours": "unknown",
    "coordinates": {
      "longitude": 14.1737211,
      "latitude": 57.7823224
    }
  },
  "15": {
    "name": "Normal",
    "url": "unknown",
    "district": "Kålgården",
    "address": "Östra Storgatan, 553 21 Jönköping, Sweden",
    "shopType": "chemist",
    "openingHours": "unknown",
    "coordinates": {
      "longitude": 14.1738434,
      "latitude": 57.7823484
    }
  },
  "16": {
    "name": "Clas Ohlson",
    "url": "unknown",
    "district": "Kålgården",
    "address": "Östra Storgatan 17, 553 21 Jönköping, Sweden",
    "shopType": "doityourself",
    "openingHours": "Mo-Fr 10:00-19:00, Sa 10:00-16:00, Su 12:00-16:00",
    "coordinates": {
      "longitude": 14.1734999,
      "latitude": 57.7823501
    }
  },
  "17": {
    "name": "Lagerhaus",
    "url": "https://www.lagerhaus.se/",
    "district": "Kålgården",
    "address": "Östra Storgatan 20, 553 21 Jönköping, Sweden",
    "shopType": "houseware",
    "openingHours": "Mo-Fr 10:00-19:00, Sa 10:00-16:00, Su 12:00-16:00",
    "coordinates": {
      "longitude": 14.1723952,
      "latitude": 57.7822707
    }
  },
  "18": {
    "name": "KappAhl",
    "url": "https://www.kappahl.com/sv-SE/",
    "district": "Kålgården",
    "address": "Östra Storgatan 17, 553 21 Jönköping, Sweden",
    "shopType": "clothes",
    "openingHours": "Mo-Fr 10:00-19:00, Sa 10:00-16:00, Su 12:00-16:00",
    "coordinates": {
      "longitude": 14.1733756,
      "latitude": 57.7823691
    }
  },
  "19": {
    "name": "Din sko",
    "url": "https://www.dinsko.se/",
    "district": "Kålgården",
    "address": "Östra Storgatan 17, 553 21 Jönköping, Sweden",
    "shopType": "shoes",
    "openingHours": "Mo-Fr 10:00-19:00, Sa 10:00-16:00, Su 12:00-16:00",
    "coordinates": {
      "longitude": 14.1731421,
      "latitude": 57.7823997
    }
  },
  "20": {
    "name": "Kjell & Company",
    "url": "unknown",
    "district": "Kålgården",
    "address": "Södra Strandgatan, 553 21 Jönköping, Sweden",
    "shopType": "electronics",
    "openingHours": "unknown",
    "coordinates": {
      "longitude": 14.1700215,
      "latitude": 57.7818778
    }
  },
  "21": {
    "name": "JC",
    "url": "unknown",
    "district": "Kålgården",
    "address": "Östra Storgatan, 553 21 Jönköping, Sweden",
    "shopType": "clothes",
    "openingHours": "unknown",
    "coordinates": {
      "longitude": 14.1729753,
      "latitude": 57.7824185
    }
  },
  "22": {
    "name": "Lindex",
    "url": "unknown",
    "district": "Kålgården",
    "address": "Östra Storgatan, 553 21 Jönköping, Sweden",
    "shopType": "clothes",
    "openingHours": "unknown",
    "coordinates": {
      "longitude": 14.1728715,
      "latitude": 57.7824284
    }
  },
  "23": {
    "name": "Smycka guld",
    "url": "https://www.smycka.se/butik/19",
    "district": "Kålgården",
    "address": "Östra Storgatan 12, 553 21 Jönköping, Sweden",
    "shopType": "jewelry",
    "openingHours": "Mo-Fr 10:00-18:00, Sa 10:00-15:00",
    "coordinates": {
      "longitude": 14.1712795,
      "latitude": 57.7824249
    }
  },
  "24": {
    "name": "Sesam",
    "url": "http://www.sesamgallerian.se",
    "district": "Kålgården",
    "address": "Östra Storgatan 7-9, 553 21 Jönköping, Sweden",
    "shopType": "mall",
    "openingHours": "Mo-Fr 10:00-19:00; Sa 10:00-16:00",
    "coordinates": {
      "longitude": 14.171417814036783,
      "latitude": 57.7828759
    }
  },
  "25": {
    "name": "H&M",
    "url": "unknown",
    "district": "Kålgården",
    "address": "Östra Storgatan 7-9, 553 21 Jönköping, Sweden",
    "shopType": "clothes",
    "openingHours": "unknown",
    "coordinates": {
      "longitude": 14.1714937,
      "latitude": 57.7826038
    }
  },
  "26": {
    "name": "Pressbyrån",
    "url": "unknown",
    "district": "Kålgården",
    "address": "Östra Storgatan, 553 21 Jönköping, Sweden",
    "shopType": "kiosk",
    "openingHours": "unknown",
    "coordinates": {
      "longitude": 14.1706897,
      "latitude": 57.7824949
    }
  },
  "27": {
    "name": "H&M HOME",
    "url": "unknown",
    "district": "Kålgården",
    "address": "Östra Storgatan 7-9, 553 21 Jönköping, Sweden",
    "shopType": "interior_decoration",
    "openingHours": "unknown",
    "coordinates": {
      "longitude": 14.1712824,
      "latitude": 57.7826256
    }
  },
  "28": {
    "name": "forum",
    "url": "unknown",
    "district": "Kålgården",
    "address": "Östra Storgatan 7-9, 553 21 Jönköping, Sweden",
    "shopType": "electronics",
    "openingHours": "unknown",
    "coordinates": {
      "longitude": 14.1711382,
      "latitude": 57.78264
    }
  },
  "29": {
    "name": "New Yorker",
    "url": "unknown",
    "district": "Kålgården",
    "address": "Östra Storgatan 7-9, 553 21 Jönköping, Sweden",
    "shopType": "clothes",
    "openingHours": "unknown",
    "coordinates": {
      "longitude": 14.1710201,
      "latitude": 57.7826623
    }
  },
  "30": {
    "name": "Synoptik",
    "url": "unknown",
    "district": "Kålgården",
    "address": "Östra Storgatan, 553 21 Jönköping, Sweden",
    "shopType": "optician",
    "openingHours": "unknown",
    "coordinates": {
      "longitude": 14.1706683,
      "latitude": 57.7826932
    }
  },
  "31": {
    "name": "Atteviks",
    "url": "unknown",
    "district": "Öster",
    "address": "John Bauersgatan, 553 22 Jönköping, Sweden",
    "shopType": "car",
    "openingHours": "unknown",
    "coordinates": {
      "longitude": 14.187418389406293,
      "latitude": 57.777979
    }
  },
  "32": {
    "name": "Atteviks",
    "url": "unknown",
    "district": "Öster",
    "address": "Rocksjöpromenaden, 553 05 Jönköping, Sweden",
    "shopType": "car",
    "openingHours": "unknown",
    "coordinates": {
      "longitude": 14.187628952519805,
      "latitude": 57.77870125
    }
  },
  "33": {
    "name": "Ica Nära flamman",
    "url": "unknown",
    "district": "Öster",
    "address": "Östra Storgatan, 553 22 Jönköping, Sweden",
    "shopType": "supermarket",
    "openingHours": "unknown",
    "coordinates": {
      "longitude": 14.1864212,
      "latitude": 57.7812506
    }
  },
  "34": {
    "name": "Go banana",
    "url": "unknown",
    "district": "Väster",
    "address": "Barnarpsgatan, 553 16 Jönköping, Sweden",
    "shopType": "confectionery",
    "openingHours": "unknown",
    "coordinates": {
      "longitude": 14.1624895,
      "latitude": 57.7812453
    }
  },
  "35": {
    "name": "Hemköp Jönköping C",
    "url": "https://www.hemkop.se/butik/4674",
    "district": "Väster",
    "address": "Barnarpsgatan 10, 553 16 Jönköping, Sweden",
    "shopType": "supermarket",
    "openingHours": "unknown",
    "coordinates": {
      "longitude": 14.1631771,
      "latitude": 57.7829436
    }
  },
  "36": {
    "name": "Hair World",
    "url": "unknown",
    "district": "Väster",
    "address": "Västra Storgatan, 553 15 Jönköping, Sweden",
    "shopType": "hairdresser",
    "openingHours": "unknown",
    "coordinates": {
      "longitude": 14.1625378,
      "latitude": 57.7834988
    }
  },
  "37": {
    "name": "ICA Supermarket",
    "url": "unknown",
    "district": "Söder",
    "address": "Klostergatan, 553 17 Jönköping, Sweden",
    "shopType": "supermarket",
    "openingHours": "Mo-Su 07:00-22:00",
    "coordinates": {
      "longitude": 14.1565056,
      "latitude": 57.77835
    }
  },
  "38": {
    "name": "Pressbyrån",
    "url": "unknown",
    "district": "Väster",
    "address": "Juneporten, 553 15 Jönköping, Sweden",
    "shopType": "convenience",
    "openingHours": "unknown",
    "coordinates": {
      "longitude": 14.1625563,
      "latitude": 57.7844647
    }
  },
  "39": {
    "name": "Godis & Tobakshörna",
    "url": "unknown",
    "district": "Väster",
    "address": "Klostergatan 16, 553 17 Jönköping, Sweden",
    "shopType": "kiosk",
    "openingHours": "unknown",
    "coordinates": {
      "longitude": 14.157792,
      "latitude": 57.781033
    }
  },
  "40": {
    "name": "Annie Johanssons hembageri",
    "url": "unknown",
    "district": "Söder",
    "address": "Klostergatan, 553 17 Jönköping, Sweden",
    "shopType": "bakery",
    "openingHours": "unknown",
    "coordinates": {
      "longitude": 14.156107,
      "latitude": 57.7780363
    }
  },
  "41": {
    "name": "City Lås",
    "url": "unknown",
    "district": "Söder",
    "address": "Klostergatan, 553 17 Jönköping, Sweden",
    "shopType": "hardware",
    "openingHours": "unknown",
    "coordinates": {
      "longitude": 14.1555914,
      "latitude": 57.7772493
    }
  },
  "42": {
    "name": "Pomona",
    "url": "unknown",
    "district": "Söder",
    "address": "Klostergatan, 553 17 Jönköping, Sweden",
    "shopType": "florist",
    "openingHours": "unknown",
    "coordinates": {
      "longitude": 14.1555045,
      "latitude": 57.777097
    }
  },
  "43": {
    "name": "Kings&Queens",
    "url": "https://www.kingsandqueens.nu/",
    "district": "Gamla flygfältet",
    "address": "Kalkstensgatan, 553 03 Jönköping, Sweden",
    "shopType": "motorcycle",
    "openingHours": "unknown",
    "coordinates": {
      "longitude": 14.18257238815511,
      "latitude": 57.76716895
    }
  },
  "44": {
    "name": "Office Depot",
    "url": "unknown",
    "district": "Söder",
    "address": "Klostergatan, 553 17 Jönköping, Sweden",
    "shopType": "stationery",
    "openingHours": "Mo-Fr 09:00-18:00",
    "coordinates": {
      "longitude": 14.1552629,
      "latitude": 57.777382
    }
  },
  "45": {
    "name": "Olgas hus",
    "url": "unknown",
    "district": "Söder",
    "address": "Klostergatan, 553 17 Jönköping, Sweden",
    "shopType": "interior_decoration",
    "openingHours": "unknown",
    "coordinates": {
      "longitude": 14.1549745,
      "latitude": 57.776959
    }
  },
  "46": {
    "name": "Pressbyrån",
    "url": "unknown",
    "district": "Söder",
    "address": "Klostergatan, 553 17 Jönköping, Sweden",
    "shopType": "convenience",
    "openingHours": "unknown",
    "coordinates": {
      "longitude": 14.1548805,
      "latitude": 57.7762184
    }
  },
  "47": {
    "name": "PSXbutiken",
    "url": "unknown",
    "shopType": "computer",
    "openingHours": "unknown",
    "coordinates": {
      "longitude": 14.154824299999998,
      "latitude": 57.77674880065997
    }
  },
  "48": {
    "name": "Konditori Rosetten",
    "url": "unknown",
    "district": "Munksjöstaden",
    "address": "Östra Torpagatan, 553 33 Jönköping, Sweden",
    "shopType": "pastry",
    "openingHours": "unknown",
    "coordinates": {
      "longitude": 14.157999,
      "latitude": 57.7712119
    }
  },
  "49": {
    "name": "Hard Rock Barbershop",
    "url": "unknown",
    "district": "Munksjöstaden",
    "address": "Barnarpsgatan, 553 33 Jönköping, Sweden",
    "shopType": "hairdresser",
    "openingHours": "unknown",
    "coordinates": {
      "longitude": 14.1564825,
      "latitude": 57.7717542
    }
  },
  "50": {
    "name": "Cramo Jönköping",
    "url": "unknown",
    "district": "Gamla flygfältet",
    "address": "Kalkstensgatan 6, 553 03 Jönköping, Sweden",
    "shopType": "tool_hire",
    "openingHours": "unknown",
    "coordinates": {
      "longitude": 14.18126395184891,
      "latitude": 57.76607105
    }
  },
  "51": {
    "name": "Lindströms Bil",
    "url": "unknown",
    "district": "Ljungarum norra",
    "address": "Bangårdsgatan, 553 03 Jönköping, Sweden",
    "shopType": "car",
    "openingHours": "unknown",
    "coordinates": {
      "longitude": 14.1791743,
      "latitude": 57.7661595
    }
  },
  "52": {
    "name": "Hemköp Jönköping Munksjöstaden",
    "url": "https://www.hemkop.se/butik/4208",
    "district": "Munksjöstaden",
    "address": "Barnarpsgatan 59, 553 33 Jönköping, Sweden",
    "shopType": "supermarket",
    "openingHours": "Mo-Su 07:00-22:00",
    "coordinates": {
      "longitude": 14.1565458,
      "latitude": 57.7710713
    }
  },
  "53": {
    "name": "VIP Video",
    "url": "unknown",
    "district": "Söder",
    "address": "Björngatan, 553 37 Jönköping, Sweden",
    "shopType": "confectionery",
    "openingHours": "unknown",
    "coordinates": {
      "longitude": 14.1528886,
      "latitude": 57.7732366
    }
  },
  "54": {
    "name": "Hööks",
    "url": "https://www.hooks.se",
    "district": "Ryhov",
    "address": "E 4;40;47, 553 05 Jönköping, Sweden",
    "shopType": "pet",
    "openingHours": "unknown",
    "coordinates": {
      "longitude": 14.1965777,
      "latitude": 57.7728239
    }
  },
  "55": {
    "name": "Arken Zoo",
    "url": "unknown",
    "district": "Ryhov",
    "address": "E 4;40;47, 553 05 Jönköping, Sweden",
    "shopType": "pet",
    "openingHours": "unknown",
    "coordinates": {
      "longitude": 14.1965731,
      "latitude": 57.7727619
    }
  },
  "56": {
    "name": "Kooperativet Bikupan",
    "url": "https://www.bikupan.org/",
    "district": "Väster",
    "address": "Svavelsticksgränd, 553 15 Jönköping, Sweden",
    "shopType": "convenience",
    "openingHours": "unknown",
    "coordinates": {
      "longitude": 14.1569926,
      "latitude": 57.7852388
    }
  },
  "57": {
    "name": "P.A. Bilservice AB",
    "url": "unknown",
    "district": "Ljungarum norra",
    "address": "Oskarshallsgatan, 553 02 Jönköping, Sweden",
    "shopType": "car_repair",
    "openingHours": "unknown",
    "coordinates": {
      "longitude": 14.1668326,
      "latitude": 57.76515
    }
  },
  "58": {
    "name": "Coop Kristinedal",
    "url": "https://www.coop.se/butiker-erbjudanden/coop/coop-kristinedal/",
    "district": "Bäckalyckan",
    "address": "Åsenvägen 2, 553 17 Jönköping, Sweden",
    "shopType": "supermarket",
    "openingHours": "unknown",
    "coordinates": {
      "longitude": 14.1507269,
      "latitude": 57.7784074
    }
  },
  "59": {
    "name": "Charlies",
    "url": "https://www.charlies.nu/",
    "district": "Ljungarum norra",
    "address": "Bangårdsgatan, 553 03 Jönköping, Sweden",
    "shopType": "outdoor",
    "openingHours": "unknown",
    "coordinates": {
      "longitude": 14.1850591,
      "latitude": 57.7652542
    }
  },
  "60": {
    "name": "Willys Hemma Jönköping Torpa",
    "url": "https://www.willys.se/butik/2827",
    "district": "Söder",
    "address": "Klostergatan 70, 553 35 Jönköping, Sweden",
    "shopType": "supermarket",
    "openingHours": "unknown",
    "coordinates": {
      "longitude": 14.1521342,
      "latitude": 57.7717749
    }
  },
  "61": {
    "name": "Sängjätten",
    "url": "unknown",
    "district": "Solåsen",
    "address": "Bangårdsgatan, 553 03 Jönköping, Sweden",
    "shopType": "convenience",
    "openingHours": "unknown",
    "coordinates": {
      "longitude": 14.1853239,
      "latitude": 57.7651174
    }
  },
  "62": {
    "name": "Erikshjälpen",
    "url": "unknown",
    "district": "Ljungarum norra",
    "address": "Bangårdsgatan, 553 03 Jönköping, Sweden",
    "shopType": "convenience",
    "openingHours": "unknown",
    "coordinates": {
      "longitude": 14.1849849,
      "latitude": 57.7649449
    }
  },
  "63": {
    "name": "Outlet A6 AB",
    "url": "unknown",
    "district": "Ryhov",
    "address": "Kompanigatan 2, 553 05 Jönköping, Sweden",
    "shopType": "yes",
    "openingHours": "unknown",
    "coordinates": {
      "longitude": 14.2002498,
      "latitude": 57.7733887
    }
  },
  "64": {
    "name": "Tempo",
    "url": "unknown",
    "district": "Liljeholmen",
    "address": "Mellangatan, 553 05 Jönköping, Sweden",
    "shopType": "convenience",
    "openingHours": "unknown",
    "coordinates": {
      "longitude": 14.201443669241057,
      "latitude": 57.7801999
    }
  },
  "65": {
    "name": "Biltema",
    "url": "https://www.biltema.se/sv/varuhus/Jonkoping/",
    "district": "Solåsen",
    "address": "Solåsvägen 26, 553 03 Jönköping, Sweden",
    "shopType": "doityourself",
    "openingHours": "unknown",
    "coordinates": {
      "longitude": 14.186386614641764,
      "latitude": 57.762984450000005
    }
  },
  "66": {
    "name": "Mio",
    "url": "unknown",
    "district": "Solåsen",
    "address": "Solåsvägen 24, 553 03 Jönköping, Sweden",
    "shopType": "furniture",
    "openingHours": "unknown",
    "coordinates": {
      "longitude": 14.185862310339886,
      "latitude": 57.7625252
    }
  },
  "67": {
    "name": "Dollarstore",
    "url": "unknown",
    "district": "Solåsen",
    "address": "Solåsvägen 12, 553 03 Jönköping, Sweden",
    "shopType": "variety_store",
    "openingHours": "unknown",
    "coordinates": {
      "longitude": 14.1776663,
      "latitude": 57.7613139
    }
  },
  "68": {
    "name": "IKEA",
    "url": "unknown",
    "district": "Ryhov",
    "address": "Bataljonsgatan, 553 05 Jönköping, Sweden",
    "shopType": "furniture",
    "openingHours": "Mo-Fr 10:00-20:00; Sa-Su 10:00-18:00",
    "coordinates": {
      "longitude": 14.204019980928097,
      "latitude": 57.771910399999996
    }
  },
  "69": {
    "name": "Åhléns",
    "url": "unknown",
    "district": "Liljeholmen",
    "address": "Kompanigatan 12, 553 05 Jönköping, Sweden",
    "shopType": "department_store",
    "openingHours": "unknown",
    "coordinates": {
      "longitude": 14.20432,
      "latitude": 57.775539
    }
  },
  "70": {
    "name": "Intersport",
    "url": "http://a6center.se/",
    "district": "Ryhov",
    "address": "Regementsgatan, 551 85 Jönköping, Sweden",
    "shopType": "sports",
    "openingHours": "Mo-Fr 10:00-20:00; Sa 10:00-18:00; Su 11:00-17:00",
    "coordinates": {
      "longitude": 14.20117970878551,
      "latitude": 57.769010550000004
    }
  },
  "71": {
    "name": "Out Comapany",
    "url": "unknown",
    "district": "Solåsen",
    "address": "Solåsvägen 22, 553 03 Jönköping, Sweden",
    "shopType": "clothes",
    "openingHours": "unknown",
    "coordinates": {
      "longitude": 14.1846236,
      "latitude": 57.7618603
    }
  },
  "72": {
    "name": "JYSK",
    "url": "unknown",
    "district": "Solåsen",
    "address": "E 4;40;47, 553 03 Jönköping, Sweden",
    "shopType": "bed",
    "openingHours": "unknown",
    "coordinates": {
      "longitude": 14.1857448,
      "latitude": 57.7620641
    }
  },
  "73": {
    "name": "Dressmann",
    "url": "unknown",
    "district": "Liljeholmen",
    "address": "E 4;40;47, 553 05 Jönköping, Sweden",
    "shopType": "clothes",
    "openingHours": "unknown",
    "coordinates": {
      "longitude": 14.2046502,
      "latitude": 57.7743887
    }
  },
  "74": {
    "name": "Cervera",
    "url": "unknown",
    "district": "Liljeholmen",
    "address": "Kompanigatan 50, 553 05 Jönköping, Sweden",
    "shopType": "houseware",
    "openingHours": "Mo-Fr 10:00-20:00, Sa 10:00-18:00, Su 11:00-17:00",
    "coordinates": {
      "longitude": 14.2047726,
      "latitude": 57.7747359
    }
  },
  "75": {
    "name": "Stadium Outlet",
    "url": "unknown",
    "district": "Solåsen",
    "address": "Solåsvägen 4E-F, 553 03 Jönköping, Sweden",
    "shopType": "sports",
    "openingHours": "unknown",
    "coordinates": {
      "longitude": 14.171905,
      "latitude": 57.7607808
    }
  },
  "76": {
    "name": "Willys",
    "url": "unknown",
    "district": "Ryhov",
    "address": "Batterigatan, 553 05 Jönköping, Sweden",
    "shopType": "supermarket",
    "openingHours": "Mo-Fr 08:00-21:00",
    "coordinates": {
      "longitude": 14.202228419008968,
      "latitude": 57.76909275
    }
  },
  "77": {
    "name": "Plantagen",
    "url": "unknown",
    "district": "Solåsen",
    "address": "Solåsvägen 18, 553 03 Jönköping, Sweden",
    "shopType": "garden_centre",
    "openingHours": "unknown",
    "coordinates": {
      "longitude": 14.1813801,
      "latitude": 57.7610493
    }
  },
  "78": {
    "name": "K-Rauta",
    "url": "unknown",
    "district": "Solåsen",
    "address": "Solåsvägen 10, 553 03 Jönköping, Sweden",
    "shopType": "doityourself",
    "openingHours": "unknown",
    "coordinates": {
      "longitude": 14.1759835,
      "latitude": 57.76062
    }
  },
  "79": {
    "name": "Elgiganten",
    "url": "unknown",
    "district": "Ryhov",
    "address": "Bataljonsgatan, 553 05 Jönköping, Sweden",
    "shopType": "electronics",
    "openingHours": "unknown",
    "coordinates": {
      "longitude": 14.203705630306171,
      "latitude": 57.770359400000004
    }
  },
  "80": {
    "name": "Jula",
    "url": "unknown",
    "district": "Ryhov",
    "address": "Batterigatan, 553 05 Jönköping, Sweden",
    "shopType": "doityourself",
    "openingHours": "unknown",
    "coordinates": {
      "longitude": 14.202771350713903,
      "latitude": 57.76953635
    }
  },
  "81": {
    "name": "XXL",
    "url": "unknown",
    "district": "Solåsen",
    "address": "Solåsvägen 6A-B, 553 03 Jönköping, Sweden",
    "shopType": "sports",
    "openingHours": "unknown",
    "coordinates": {
      "longitude": 14.1730316,
      "latitude": 57.7604049
    }
  },
  "82": {
    "name": "Ekholms färgcenter",
    "url": "unknown",
    "district": "Ryhov",
    "address": "Bataljonsgatan, 553 05 Jönköping, Sweden",
    "shopType": "paint",
    "openingHours": "unknown",
    "coordinates": {
      "longitude": 14.2029699,
      "latitude": 57.7699269
    }
  },
  "83": {
    "name": "Lager 157",
    "url": "unknown",
    "district": "Solåsen",
    "address": "Solåsvägen 4C, 553 03 Jönköping, Sweden",
    "shopType": "clothes",
    "openingHours": "unknown",
    "coordinates": {
      "longitude": 14.171741774145012,
      "latitude": 57.760157250000006
    }
  },
  "84": {
    "name": "MediaMarkt",
    "url": "unknown",
    "district": "Solåsen",
    "address": "Solåsvägen 6A-B, 553 03 Jönköping, Sweden",
    "shopType": "electronics",
    "openingHours": "unknown",
    "coordinates": {
      "longitude": 14.1724448,
      "latitude": 57.7603783
    }
  },
  "85": {
    "name": "Rusta",
    "url": "unknown",
    "district": "Solåsen",
    "address": "Solåsvägen 4A-B, 553 03 Jönköping, Sweden",
    "shopType": "variety_store",
    "openingHours": "unknown",
    "coordinates": {
      "longitude": 14.1706711,
      "latitude": 57.7602852
    }
  },
  "86": {
    "name": "Granngården",
    "url": "unknown",
    "district": "Solåsen",
    "address": "Solåsvägen 4A-B, 553 03 Jönköping, Sweden",
    "shopType": "garden_centre",
    "openingHours": "unknown",
    "coordinates": {
      "longitude": 14.1696607,
      "latitude": 57.7603103
    }
  },
  "87": {
    "name": "Systembolaget",
    "url": "unknown",
    "district": "Liljeholmen",
    "address": "E 4;40;47, 553 05 Jönköping, Sweden",
    "shopType": "alcohol",
    "openingHours": "Mo-Fr 10:00-20:00, Sa 10:00-15:00",
    "coordinates": {
      "longitude": 14.2058548,
      "latitude": 57.773254
    }
  },
  "88": {
    "name": "MobilCenter Jönköping AB",
    "url": "https://mobilcenter.nu",
    "district": "Ryhov",
    "address": "Bataljonsgatan 5, 553 05 Jönköping, Sweden",
    "shopType": "mobile_phone",
    "openingHours": "Mo-Fr 10:00-20:00; Sa 10:00-18:00; Su 11:00-17:00",
    "coordinates": {
      "longitude": 14.2062469,
      "latitude": 57.7732622
    }
  },
  "89": {
    "name": "Stora Coop Jönköping",
    "url": "https://www.coop.se/butiker-erbjudanden/stora-coop/stora-coop-jonkoping/",
    "district": "Ryhov",
    "address": "Bataljonsgatan, 553 05 Jönköping, Sweden",
    "shopType": "supermarket",
    "openingHours": "unknown",
    "coordinates": {
      "longitude": 14.2058723,
      "latitude": 57.7724148
    }
  },
  "90": {
    "name": "Lidl",
    "url": "unknown",
    "district": "Skeppsbron",
    "address": "Jordbrovägen, 553 30 Jönköping, Sweden",
    "shopType": "supermarket",
    "openingHours": "unknown",
    "coordinates": {
      "longitude": 14.1536742,
      "latitude": 57.7637483
    }
  }
}