[
  {
    "name": "Kulturhuset Spira",
    "url": "https://www.smot.se/om-oss/",
    "district": "Kålgården",
    "address": "Kulturgatan 3, 553 24 Jönköping, Sweden",
    "shopType": "unknown",
    "openingHours": "Tu-Fr 11:00-19:00",
    "coordinates": {
      "longitude": 14.171782081777884,
      "latitude": 57.77764875
    }
  },
  {
    "name": "Jönköpings läns museum",
    "url": "unknown",
    "district": "Kålgården",
    "address": "Slottsgatan 2, 553 22 Jönköping, Sweden",
    "shopType": "unknown",
    "openingHours": "unknown",
    "coordinates": {
      "longitude": 14.1759104,
      "latitude": 57.7801989
    }
  },
  {
    "name": "Jönköpings teater",
    "url": "unknown",
    "district": "Kålgården",
    "address": "Kanalgatan, 553 22 Jönköping, Sweden",
    "shopType": "unknown",
    "openingHours": "unknown",
    "coordinates": {
      "longitude": 14.1768304,
      "latitude": 57.7814602
    }
  },
  {
    "name": "Filmstaden",
    "url": "unknown",
    "district": "Väster",
    "address": "Lundströms plats, 553 15 Jönköping, Sweden",
    "shopType": "unknown",
    "openingHours": "unknown",
    "coordinates": {
      "longitude": 14.1611299,
      "latitude": 57.7833233
    }
  },
  {
    "name": "Tändsticksmuseet",
    "url": "unknown",
    "district": "Väster",
    "address": "Tändsticksgränd, 553 15 Jönköping, Sweden",
    "shopType": "unknown",
    "openingHours": "unknown",
    "coordinates": {
      "longitude": 14.159598133333333,
      "latitude": 57.7846575
    }
  },
  {
    "name": "Bowling City",
    "url": "unknown",
    "district": "Väster",
    "address": "Gjuterigatan, 553 17 Jönköping, Sweden",
    "shopType": "unknown",
    "openingHours": "unknown",
    "coordinates": {
      "longitude": 14.1537737,
      "latitude": 57.7811036
    }
  },
  {
    "name": "Folkets bio",
    "url": "unknown",
    "district": "Väster",
    "address": "Svavelsticksgränd, 553 15 Jönköping, Sweden",
    "shopType": "unknown",
    "openingHours": "unknown",
    "coordinates": {
      "longitude": 14.156297,
      "latitude": 57.785531
    }
  },
  {
    "name": "Psykiatrins arbetsplatsmuseum",
    "url": "unknown",
    "district": "Ryhov",
    "address": "Slingan, 551 85 Jönköping, Sweden",
    "shopType": "unknown",
    "openingHours": "unknown",
    "coordinates": {
      "longitude": 14.19240029404762,
      "latitude": 57.7705303
    }
  },
  {
    "name": "Fågelmuseet",
    "url": "unknown",
    "district": "Bäckalyckan",
    "address": "von Platensgatan, 553 13 Jönköping, Sweden",
    "shopType": "unknown",
    "openingHours": "unknown",
    "coordinates": {
      "longitude": 14.144643955757875,
      "latitude": 57.781443949999996
    }
  }
]